{
"version": 1,
"courses": [
 {"id":"f1cd5248-cc99-57fb-8acc-a4dac3d13e68","name":"Adventure Golf and Raceway","isPartnered":false,"streetAddress":"9650 Sheridan Boulevard","city":"Westminster","state":"CO","zipCode":"80031","fullAddress":"9650 Sheridan Boulevard Westminster CO 80031","latitude":39.8716995,"longitude":-105.0517005,"locationURL":"https://www.adventuregolfandraceway.com","courseDescription":"Three outdoor courses","maxStrokesPerHole":6,"holeCount":18,"holes":[{"par":3},{"par":3},{"par":3},{"par":3},{"par":3},{"par":3},{"par":3},{"par":3},{"par":3},{"par":3},{"par":3},{"par":3},{"par":3},{"par":3},{"par":3},{"par":3},{"par":3},{"par":3}]},
 {"id":"4db6cadf-c10c-5bbe-9b28-851eb5f2d401","name":"Kauai Mini Golf","isPartnered":false,"streetAddress":"5-2723 Kuhio Hwy","city":"Kilauea","state":"HI","zipCode":"96754","fullAddress":"5-2723 Kuhio Hwy Kilauea HI 96754","latitude":22.2109763,"longitude":-159.4160471,"locationURL":"https://anainahou.org","courseDescription":"Outdoor course","maxStrokesPerHole":6,"holeCount":18,"holes":[{"par":3},{"par":3},{"par":3},{"par":3},{"par":3},{"par":3},{"par":3},{"par":3},{"par":3},{"par":3},{"par":3},{"par":3},{"par":3},{"par":3},{"par":3},{"par":3},{"par":3},{"par":3}]},
 {"id":"34601e40-a4a4-5488-9ab6-816c0803d85e","name":"Around the World Miniature Golf","isPartnered":false,"streetAddress":"58 Beach Rd","city":"Lake George","state":"NY","zipCode":"12845","fullAddress":"58 Beach Rd Lake George NY 12845","latitude":43.4202297,"longitude":-73.7096404,"locationURL":"https://www.aroundtheworldgolf.com","courseDescription":"World-themed outdoor course","maxStrokesPerHole":6,"holeCount":18,"holes":[{"par":4},{"par":3},{"par":2},{"par":2},{"par":4},{"par":3},{"par":3},{"par":2},{"par":2},{"par":3},{"par":3},{"par":3},{"par":3},{"par":3},{"par":2},{"par":3},{"par":2},{"par":1}]},
 {"id":"ffd03ef1-9581-5fbc-bb02-a319913a52e0","name":"Arroyo Seco Golf Course","isPartnered":false,"streetAddress":"1055 Lohman Ln","city":"South Pasadena","state":"CA","zipCode":"91030","fullAddress":"1055 Lohman Ln South Pasadena CA 91030","latitude":34.1132105,"longitude":-118.1717562,"locationURL":"https://arroyosecogc.com","courseDescription":"Outdoor course","maxStrokesPerHole":6,"holeCount":9,"holes":[{"par":2},{"par":2},{"par":3},{"par":3},{"par":3},{"par":4},{"par":3},{"par":3},{"par":3}]},
 {"id":"8421127e-5b68-57ec-89e8-e89cb00aacab","name":"Big Stone Mini Golf","isPartnered":false,"streetAddress":"7110 County Rd 110 W","city":"Minnetrista","state":"MN","zipCode":"55364","fullAddress":"7110 County Rd 110 W Minnetrista MN 55364","latitude":44.9264012,"longitude":-93.7038516,"locationURL":"http://www.bigstoneminigolf.com","courseDescription":"Outdoor course","maxStrokesPerHole":6,"holeCount":14,"holes":[{"par":3},{"par":3},{"par":3},{"par":3},{"par":3},{"par":3},{"par":3},{"par":3},{"par":3},{"par":3},{"par":3},{"par":3},{"par":3},{"par":3}]},
 {"id":"f0c62483-bcdf-5549-b7b2-655558e15d22","name":"Blackbeard’s","isPartnered":false,"streetAddress":"4055 S Chestnut Diagonal","city":"Fresno","state":"CA","zipCode":"93726","fullAddress":"4055 S Chestnut Diagonal Fresno CA 93726","latitude":36.7919943,"longitude":-119.7295961,"locationURL":"https://blackbeards.com","courseDescription":"Three themed outdoor courses","maxStrokesPerHole":6,"holeCount":18,"holes":[{"par":2},{"par":2},{"par":3},{"par":3},{"par":3},{"par":3},{"par":2},{"par":3},{"par":3},{"par":4},{"par":2},{"par":2},{"par":3},{"par":3},{"par":3},{"par":3},{"par":4},{"par":2}]},
 {"id":"9e13edd5-7055-5fa5-bc54-b7a2571283e7","name":"Boondocks Food and Fun","isPartnered":false,"streetAddress":"75 Southfork Dr,","city":"Draper","state":"UT","zipCode":"84020","fullAddress":"75 Southfork Dr, Draper UT 84020","latitude":40.4945692,"longitude":-111.8894344,"locationURL":"https://boondocks.com/draper/","courseDescription":"Two outdoor courses","maxStrokesPerHole":6,"holeCount":18,"holes":[{"par":3},{"par":3},{"par":3},{"par":3},{"par":3},{"par":3},{"par":3},{"par":3},{"par":3},{"par":3},{"par":3},{"par":3},{"par":3},{"par":3},{"par":3},{"par":3},{"par":3},{"par":3}]},
 {"id":"e02923b4-acef-55b9-8a29-c228f33caf6d","name":"Brickopolis","isPartnered":false,"streetAddress":"101 S Mickey Mantle Dr","city":"Oklahoma City","state":"OK","zipCode":"73104","fullAddress":"101 S Mickey Mantle Dr Oklahoma City OK 73104","latitude":35.4650218,"longitude":-97.5093175,"locationURL":"https://www.brickopolisu.com","courseDescription":"Outdoor course","maxStrokesPerHole":6,"holeCount":18,"holes":[{"par":3},{"par":3},{"par":3},{"par":3},{"par":3},{"par":3},{"par":3},{"par":3},{"par":3},{"par":3},{"par":3},{"par":3},{"par":3},{"par":3},{"par":3},{"par":3},{"par":3},{"par":3}]},
 {"id":"10ce4cde-9090-5315-a09f-d803139869a0","name":"Bullwinkle's","isPartnered":false,"streetAddress":"1500 W 7th St","city":"Upland","state":"CA","zipCode":"91786","fullAddress":"1500 W 7th St Upland CA 91786","latitude":34.0882911,"longitude":-117.6782487,"locationURL":"https://bullwinkles.com","courseDescription":"One outdoor and two themed indoor courses","maxStrokesPerHole":6,"holeCount":18,"holes":[{"par":3},{"par":3},{"par":3},{"par":3},{"par":3},{"par":3},{"par":3},{"par":3},{"par":3},{"par":3},{"par":3},{"par":3},{"par":3},{"par":3},{"par":3},{"par":3},{"par":3},{"par":3}]},
 {"id":"d5a40a9a-f10b-5389-8eb6-b7d60bb5ac60","name":"Camelot Golfland","isPartnered":false,"streetAddress":"3200 E Carpenter Ave","city":"Anaheim","state":"CA","zipCode":"92806","fullAddress":"3200 E Carpenter Ave Anaheim CA 92806","latitude":33.8503993,"longitude":-117.8513949,"locationURL":"https://www.golfland.com/anaheim/","courseDescription":"Three themed outdoor courses","maxStrokesPerHole":6,"holeCount":18,"holes":[{"par":3},{"par":3},{"par":3},{"par":3},{"par":3},{"par":3},{"par":3},{"par":3},{"par":3},{"par":3},{"par":3},{"par":3},{"par":3},{"par":3},{"par":3},{"par":3},{"par":3},{"par":3}]},
 {"id":"353df96c-ef09-54e9-bccf-5ca80d25b9ef","name":"Chuckster’s","isPartnered":false,"streetAddress":"9 Bailey Rd","city":"Chichester","state":"NH","zipCode":"03258","fullAddress":"9 Bailey Rd Chichester NH 03258","latitude":43.2441627,"longitude":-71.4444075,"locationURL":"https://www.chuckstersnh.com","courseDescription":"Outdoor course","maxStrokesPerHole":6,"holeCount":18,"holes":[{"par":3},{"par":3},{"par":3},{"par":3},{"par":3},{"par":3},{"par":3},{"par":3},{"par":3},{"par":3},{"par":3},{"par":3},{"par":3},{"par":3},{"par":3},{"par":3},{"par":3},{"par":3}]},
 {"id":"5956ecbc-6166-544e-84dd-e3c8c796c56f","name":"City Putt Miniature Golf Course","isPartnered":false,"streetAddress":"33 Dreyfous Dr","city":"New Orleans","state":"LA","zipCode":"70119","fullAddress":"33 Dreyfous Dr New Orleans LA 70119","latitude":29.9859857,"longitude":-90.0981526,"locationURL":"https://neworleanscitypark.org/visit-city-park/city-putt/","courseDescription":"Two city & cultural themed courses","maxStrokesPerHole":6,"holeCount":18,"holes":[{"par":3},{"par":3},{"par":3},{"par":3},{"par":3},{"par":3},{"par":3},{"par":3},{"par":3},{"par":3},{"par":3},{"par":3},{"par":3},{"par":3},{"par":3},{"par":3},{"par":3},{"par":3}]},
 {"id":"d1e13f4b-4211-5929-96be-8dacbd4634f6","name":"Coal Country Miniature Golf","isPartnered":false,"streetAddress":"22 Coal Country Ln","city":"Fairmont","state":"WV","zipCode":"26554","fullAddress":"22 Coal Country Ln Fairmont WV 26554","latitude":39.4769282,"longitude":-80.1374817,"locationURL":"https://www.coalcountrywv.com","courseDescription":"Coal mining-themed outdoor course","maxStrokesPerHole":6,"holeCount":18,"holes":[{"par":3},{"par":3},{"par":3},{"par":3},{"par":3},{"par":3},{"par":3},{"par":3},{"par":3},{"par":3},{"par":3},{"par":3},{"par":3},{"par":3},{"par":3},{"par":3},{"par":3},{"par":3}]},
 {"id":"3cfc3cde-dccb-5aa9-9c3b-b89fd6087c99","name":"Deadwood Mini Golf","isPartnered":false,"streetAddress":"225 Cliff St","city":"Deadwood","state":"SD","zipCode":"57732","fullAddress":"225 Cliff St Deadwood SD 57732","latitude":44.3646512,"longitude":-103.7325639,"locationURL":"https://www.deadwoodcomfortinn.com/amenities/deadwood-mini-golf","courseDescription":"Outdoor course","maxStrokesPerHole":6,"holeCount":18,"holes":[{"par":3},{"par":3},{"par":3},{"par":3},{"par":3},{"par":3},{"par":3},{"par":3},{"par":3},{"par":3},{"par":3},{"par":3},{"par":3},{"par":3},{"par":3},{"par":3},{"par":3},{"par":3}]},
 {"id":"5eb4f636-c54d-5f80-9e16-214bb3e0d725","name":"Dolphin Mini Golf","isPartnered":false,"streetAddress":"510 Wiscasset Rd","city":"Boothbay","state":"ME","zipCode":"04537","fullAddress":"510 Wiscasset Rd Boothbay ME 04537","latitude":43.907046,"longitude":-69.6159249,"locationURL":"https://www.facebook.com/dolphinminigolf","courseDescription":"Nautical-themed outdoor course","maxStrokesPerHole":6,"holeCount":18,"holes":[{"par":3},{"par":3},{"par":3},{"par":3},{"par":3},{"par":3},{"par":3},{"par":3},{"par":3},{"par":3},{"par":3},{"par":3},{"par":3},{"par":3},{"par":3},{"par":3},{"par":3},{"par":3}]},
 {"id":"6af21d2b-162a-5356-b3d7-ad005d2bc473","name":"Fairfield Fun Center","isPartnered":false,"streetAddress":"6400 Dixie Hwy","city":"Fairfield","state":"OH","zipCode":"45014","fullAddress":"6400 Dixie Hwy Fairfield OH 45014","latitude":39.3234893,"longitude":-84.5035483,"locationURL":"https://www.milesofgolf.com/cincinnati-entertainment","courseDescription":"Outdoor course","maxStrokesPerHole":6,"holeCount":18,"holes":[{"par":3},{"par":3},{"par":3},{"par":3},{"par":3},{"par":3},{"par":3},{"par":3},{"par":3},{"par":3},{"par":3},{"par":3},{"par":3},{"par":3},{"par":3},{"par":3},{"par":3},{"par":3}]},
 {"id":"ce3a87ed-401e-52bd-bb24-a2858e6925de","name":"Fantasia Gardens and Fairways Miniature Golf","isPartnered":false,"streetAddress":"1200 Epcot Resorts Blvd","city":"Lake Buena Vista","state":"FL","zipCode":"32830","fullAddress":"1200 Epcot Resorts Blvd Lake Buena Vista FL 32830","latitude":28.3652865,"longitude":-81.5591566,"locationURL":"https://disneyworld.disney.go.com/recreation/fantasia-gardens-fairways-miniature-golf/","courseDescription":"Two outdoor courses","maxStrokesPerHole":6,"holeCount":18,"holes":[{"par":3},{"par":3},{"par":3},{"par":3},{"par":3},{"par":3},{"par":3},{"par":3},{"par":3},{"par":3},{"par":3},{"par":3},{"par":3},{"par":3},{"par":3},{"par":3},{"par":3},{"par":3}]},
 {"id":"f5e7e89f-1565-53b2-b5c0-e1eb125deccf","name":"Fiesta Village Family Fun Park","isPartnered":false,"streetAddress":"1405 E Washington St","city":"Colton","state":"CA","zipCode":"92324","fullAddress":"1405 E Washington St Colton CA 92324","latitude":34.0489009,"longitude":-117.3043841,"locationURL":"https://fiestavillage.com","courseDescription":"Two outdoor themed courses","maxStrokesPerHole":6,"holeCount":18,"holes":[{"par":3},{"par":3},{"par":3},{"par":3},{"par":3},{"par":3},{"par":3},{"par":3},{"par":3},{"par":3},{"par":3},{"par":3},{"par":3},{"par":3},{"par":3},{"par":3},{"par":3},{"par":3}]},
 {"id":"2dd67d80-829f-501d-b880-a2de428e482c","name":"Frankie's","isPartnered":false,"streetAddress":"11190 Fun Park Dr","city":"Raleigh","state":"NC","zipCode":"27617","fullAddress":"11190 Fun Park Dr Raleigh NC 27617","latitude":35.9192628,"longitude":-78.7939005,"locationURL":"https://frankies.com/raleigh/","courseDescription":"Three outdoor courses","maxStrokesPerHole":6,"holeCount":18,"holes":[{"par":3},{"par":3},{"par":3},{"par":3},{"par":3},{"par":3},{"par":3},{"par":3},{"par":3},{"par":3},{"par":3},{"par":3},{"par":3},{"par":3},{"par":3},{"par":3},{"par":3},{"par":3}]},
 {"id":"46972fc5-d5bc-5498-b508-3ee0782625f8","name":"Ghost Golf","isPartnered":false,"streetAddress":"5179 N Blackstone Ave","city":"Fresno","state":"CA","zipCode":"93704","fullAddress":"5179 N Blackstone Ave Fresno CA 93704","latitude":36.8119574,"longitude":-119.7919551,"locationURL":"https://ghost.golf","courseDescription":"\"Haunted\" outdoor course","maxStrokesPerHole":6,"holeCount":18,"holes":[{"par":3},{"par":3},{"par":3},{"par":3},{"par":3},{"par":3},{"par":3},{"par":3},{"par":3},{"par":3},{"par":3},{"par":3},{"par":3},{"par":3},{"par":3},{"par":3},{"par":3},{"par":3}]},
 {"id":"e3f90b86-03ad-5118-be1f-b1856453d570","name":"GLO Mini Golf","isPartnered":false,"streetAddress":"1299 Tyler St Ste E106","city":"Riverside","state":"CA","zipCode":"92503","fullAddress":"1299 Tyler St Ste E106 Riverside CA 92503","latitude":33.9098361,"longitude":-117.4566941,"locationURL":"https://glominigolf.com","courseDescription":"3D glow-in-the-dark indoor course","maxStrokesPerHole":6,"holeCount":27,"holes":[{"par":3},{"par":3},{"par":3},{"par":3},{"par":3},{"par":3},{"par":3},{"par":3},{"par":3},{"par":3},{"par":3},{"par":3},{"par":3},{"par":3},{"par":3},{"par":3},{"par":3},{"par":3},{"par":3},{"par":3},{"par":3},{"par":3},{"par":3},{"par":3},{"par":3},{"par":3},{"par":3}]},
 {"id":"45f085ae-0f25-5322-a924-388e2aa89c30","name":"Glowing Greens","isPartnered":false,"streetAddress":"509 SW Taylor St","city":"Portland","state":"OR","zipCode":"97024","fullAddress":"509 SW Taylor St Portland OR 97024","latitude":45.5176616,"longitude":-122.6786192,"locationURL":"https://glowinggreens.com","courseDescription":"Blacklight indoor course","maxStrokesPerHole":6,"holeCount":13,"holes":[{"par":3},{"par":3},{"par":3},{"par":3},{"par":3},{"par":3},{"par":3},{"par":3},{"par":3},{"par":3},{"par":3},{"par":3},{"par":3}]},
 {"id":"d2919e5f-fb49-5e8e-9dda-896989f0aca4","name":"Golden Tee Golfland","isPartnered":false,"streetAddress":"2533 Castro Valley Blvd","city":"Castro Valley","state":"CA","zipCode":"94546","fullAddress":"2533 Castro Valley Blvd Castro Valley CA 94546","latitude":37.6926342,"longitude":-122.0877358,"locationURL":"https://golfland.com/castrovalley","courseDescription":"Outdoor course","maxStrokesPerHole":6,"holeCount":18,"holes":[{"par":3},{"par":3},{"par":3},{"par":3},{"par":3},{"par":3},{"par":3},{"par":3},{"par":3},{"par":3},{"par":3},{"par":3},{"par":3},{"par":3},{"par":3},{"par":3},{"par":3},{"par":3}]},
 {"id":"d8bdeee3-9f16-55ae-b883-e78b46d42dd3","name":"Golf Mountain Mini Golf","isPartnered":false,"streetAddress":"1115 N Dixieland St","city":"Lowell","state":"AR","zipCode":"72745","fullAddress":"1115 N Dixieland St Lowell AR 72745","latitude":36.2709708,"longitude":-94.1446289,"locationURL":"https://golf-mountain.net","courseDescription":"Two outdoor courses","maxStrokesPerHole":6,"holeCount":18,"holes":[{"par":3},{"par":3},{"par":3},{"par":3},{"par":3},{"par":3},{"par":3},{"par":3},{"par":3},{"par":3},{"par":3},{"par":3},{"par":3},{"par":3},{"par":3},{"par":3},{"par":3},{"par":3}]},
 {"id":"a4f42abd-3f05-502e-8636-6056ca3f499a","name":"Golf N’ Stuff","isPartnered":false,"streetAddress":"10555 E Firestone Blvd","city":"Norwalk","state":"CA","zipCode":"90650","fullAddress":"10555 E Firestone Blvd Norwalk CA 90650","latitude":33.9266114,"longitude":-118.1062401,"locationURL":"https://www.golfnstuff.com/norwalk","courseDescription":"Four outdoor courses","maxStrokesPerHole":6,"holeCount":18,"holes":[{"par":2},{"par":3},{"par":3},{"par":3},{"par":3},{"par":3},{"par":3},{"par":3},{"par":3},{"par":3},{"par":3},{"par":3},{"par":3},{"par":3},{"par":3},{"par":3},{"par":3},{"par":2}]},
 {"id":"f94a0095-fb1b-51c0-9841-a2eb15db27b6","name":"Golfland","isPartnered":false,"streetAddress":"1199 Jacklin Rd","city":"Milpitas","state":"CA","zipCode":"95035","fullAddress":"1199 Jacklin Rd Milpitas CA 95035","latitude":37.4477513,"longitude":-121.889991,"locationURL":"https://www.golfland.com/milpitas/","courseDescription":"Three outdoor courses","maxStrokesPerHole":6,"holeCount":18,"holes":[{"par":3},{"par":3},{"par":3},{"par":3},{"par":3},{"par":3},{"par":3},{"par":3},{"par":3},{"par":3},{"par":3},{"par":3},{"par":3},{"par":3},{"par":3},{"par":3},{"par":3},{"par":3}]},
 {"id":"6056da52-3380-501b-a626-27ff4b24daab","name":"Golfland Sunsplash","isPartnered":false,"streetAddress":"155 W Hampton Ave","city":"Mesa","state":"AZ","zipCode":"85210","fullAddress":"155 W Hampton Ave Mesa AZ 85210","latitude":33.3878222,"longitude":-111.8363856,"locationURL":"https://www.golfland.com/mesa/","courseDescription":"Three themed outdoor courses","maxStrokesPerHole":6,"holeCount":18,"holes":[{"par":3},{"par":3},{"par":3},{"par":3},{"par":3},{"par":3},{"par":3},{"par":3},{"par":3},{"par":3},{"par":3},{"par":3},{"par":3},{"par":3},{"par":3},{"par":3},{"par":3},{"par":3}]},
 {"id":"7cf73860-b0bd-5930-8d2e-ad87ece6cbb5","name":"Hillbilly Golf","isPartnered":false,"streetAddress":"340 Parkway","city":"Gatlinburg","state":"TN","zipCode":"37738","fullAddress":"340 Parkway Gatlinburg TN 37738","latitude":35.7186173,"longitude":-83.5106085,"locationURL":"https://www.gatlinburg.com/listing/hillbilly-golf/327/","courseDescription":"Two Appalachian-themed outdoor courses","maxStrokesPerHole":6,"holeCount":18,"holes":[{"par":3},{"par":3},{"par":3},{"par":3},{"par":3},{"par":3},{"par":3},{"par":3},{"par":3},{"par":3},{"par":3},{"par":3},{"par":3},{"par":3},{"par":3},{"par":3},{"par":3},{"par":3}]},
 {"id":"ab1e86b5-2505-5c64-8c3f-648ce0831659","name":"Hinkle Fun Center","isPartnered":false,"streetAddress":"12931 Indian School Rd NE","city":"Albuquerque","state":"NM","zipCode":"87112","fullAddress":"12931 Indian School Rd NE Albuquerque NM 87112","latitude":35.0950045,"longitude":-106.4984649,"locationURL":"https://www.hinklefuncenter.com","courseDescription":"Two outdoor courses","maxStrokesPerHole":6,"holeCount":18,"holes":[{"par":3},{"par":3},{"par":3},{"par":3},{"par":3},{"par":3},{"par":3},{"par":3},{"par":3},{"par":3},{"par":3},{"par":3},{"par":3},{"par":3},{"par":3},{"par":3},{"par":3},{"par":3}]},
 {"id":"89ab8ad9-3cc1-570f-8339-570e5d9c3012","name":"Holey Moley Golf Club","isPartnered":false,"streetAddress":"1096 S Van Ness Ave","city":"San Francisco","state":"CA","zipCode":"94110","fullAddress":"1096 S Van Ness Ave San Francisco CA 94110","latitude":37.7557238,"longitude":-122.4168622,"locationURL":"https://holeymoley.com/locations/san-francisco","courseDescription":"Two indoor courses","maxStrokesPerHole":6,"holeCount":9,"holes":[{"par":3},{"par":3},{"par":3},{"par":3},{"par":3},{"par":3},{"par":3},{"par":3},{"par":3}]},
 {"id":"de0c02d2-03cb-5cad-a471-492e1035f05c","name":"Into the Woods Mini Golf","isPartnered":false,"streetAddress":"1028 Gratiot St","city":"Copper Harbor","state":"MI","zipCode":"49918","fullAddress":"1028 Gratiot St Copper Harbor MI 49918","latitude":47.469323,"longitude":-87.8983,"locationURL":"https://copperharbor.org/portfolio/into-the-woods/","courseDescription":"Outdoor course","maxStrokesPerHole":6,"holeCount":18,"holes":[{"par":3},{"par":3},{"par":3},{"par":3},{"par":3},{"par":3},{"par":3},{"par":3},{"par":3},{"par":3},{"par":3},{"par":3},{"par":3},{"par":3},{"par":3},{"par":3},{"par":3},{"par":3}]},
 {"id":"14843f1d-bd79-5e04-9228-62fef921d258","name":"Kiss Monster Mini Golf","isPartnered":false,"streetAddress":"3700 W Flamingo Rd","city":"Las Vegas","state":"NV","zipCode":"89103","fullAddress":"3700 W Flamingo Rd Las Vegas NV 89103","latitude":36.1172393,"longitude":-115.1861254,"locationURL":"https://kissminigolf.com","courseDescription":"KISS-themed glow-in-the-dark indoor course","maxStrokesPerHole":6,"holeCount":18,"holes":[{"par":3},{"par":3},{"par":3},{"par":3},{"par":3},{"par":3},{"par":3},{"par":3},{"par":3},{"par":3},{"par":3},{"par":3},{"par":3},{"par":3},{"par":3},{"par":3},{"par":3},{"par":3}]},
 {"id":"ab78821c-6520-597a-9721-153c17e9efae","name":"Lava Links Golf Club","isPartnered":false,"streetAddress":"9380 Central Ave","city":"D'Iberville","state":"MS","zipCode":"39540","fullAddress":"9380 Central Ave D'Iberville MS 39540","latitude":30.4251262,"longitude":-88.8900268,"locationURL":"https://www.scarletpearlcasino.com/stay/lava-links/","courseDescription":"Two tropical-themed outdoor courses","maxStrokesPerHole":6,"holeCount":18,"holes":[{"par":3},{"par":3},{"par":3},{"par":3},{"par":3},{"par":3},{"par":3},{"par":3},{"par":3},{"par":3},{"par":3},{"par":3},{"par":3},{"par":3},{"par":3},{"par":3},{"par":3},{"par":3}]},
 {"id":"9b44fff5-5764-517e-813f-36b7759e9482","name":"Little Bully Pulpit Mini Golf","isPartnered":false,"streetAddress":"Main St","city":"Medora","state":"ND","zipCode":"58645","fullAddress":"Main St Medora ND 58645","latitude":46.913777,"longitude":-103.5215628,"locationURL":"https://medora.com/pointtopoint/","courseDescription":"Outdoor course","maxStrokesPerHole":6,"holeCount":18,"holes":[{"par":3},{"par":3},{"par":3},{"par":3},{"par":3},{"par":3},{"par":3},{"par":3},{"par":3},{"par":3},{"par":3},{"par":3},{"par":3},{"par":3},{"par":3},{"par":3},{"par":3},{"par":3}]},
 {"id":"50e6a142-1da1-50d3-ad64-f073d82a80d1","name":"Lots-O-Balls Mini Golf","isPartnered":false,"streetAddress":"2702 Vermont Rte 100","city":"Duxbury","state":"VT","zipCode":"05676","fullAddress":"2702 Vermont Rte 100 Duxbury VT 05676","latitude":44.2842832,"longitude":-72.7817003,"locationURL":"https://lotsoballsminigolf.com/index.html","courseDescription":"Outdoor course","maxStrokesPerHole":6,"holeCount":18,"holes":[{"par":3},{"par":3},{"par":3},{"par":3},{"par":3},{"par":3},{"par":3},{"par":3},{"par":3},{"par":3},{"par":3},{"par":3},{"par":3},{"par":3},{"par":3},{"par":3},{"par":3},{"par":3}]},
 {"id":"01f09acb-3758-5f36-95ae-3d4733336aaa","name":"Malibu Jack’s","isPartnered":false,"streetAddress":"2520 Nicholasville Rd","city":"Lexington","state":"KY","zipCode":"40503","fullAddress":"2520 Nicholasville Rd Lexington KY 40503","latitude":37.9982825,"longitude":-84.5184278,"locationURL":"https://www.malibujacks.net/lexington/home","courseDescription":"Indoor course","maxStrokesPerHole":6,"holeCount":18,"holes":[{"par":3},{"par":3},{"par":3},{"par":3},{"par":3},{"par":3},{"par":3},{"par":3},{"par":3},{"par":3},{"par":3},{"par":3},{"par":3},{"par":3},{"par":3},{"par":3},{"par":3},{"par":3}]},
 {"id":"790bd933-8e95-5159-857a-edc3e2b2da6c","name":"Matterhorn Mini Golf","isPartnered":false,"streetAddress":"10 Dyer Cemetery Rd","city":"Canton","state":"CT","zipCode":"06019","fullAddress":"10 Dyer Cemetery Rd Canton CT 06019","latitude":41.8340681,"longitude":-72.9246708,"locationURL":"https://www.matterhornminigolf.com","courseDescription":"Swiss-themed outdoor course","maxStrokesPerHole":6,"holeCount":18,"holes":[{"par":3},{"par":3},{"par":3},{"par":3},{"par":3},{"par":3},{"par":3},{"par":3},{"par":3},{"par":3},{"par":3},{"par":3},{"par":3},{"par":3},{"par":3},{"par":3},{"par":3},{"par":3}]},
 {"id":"e0020fac-3316-5642-85f9-b42a1ce6ccc4","name":"Mini Pines","isPartnered":false,"streetAddress":"3800 42nd St NE","city":"Cedar Rapids","state":"IA","zipCode":"52402","fullAddress":"3800 42nd St NE Cedar Rapids IA 52402","latitude":42.0248568,"longitude":-91.6967245,"locationURL":"https://www.cedar-rapids.org/residents/parks_and_recreation/crgolf/mini_pines_miniature_golf_course.php","courseDescription":"Outdoor course","maxStrokesPerHole":6,"holeCount":18,"holes":[{"par":3},{"par":3},{"par":3},{"par":3},{"par":3},{"par":3},{"par":3},{"par":3},{"par":3},{"par":3},{"par":3},{"par":3},{"par":3},{"par":3},{"par":3},{"par":3},{"par":3},{"par":3}]},
 {"id":"47f17634-ced4-5381-ac1d-64748ba08a4e","name":"Mr. Atanticus","isPartnered":false,"streetAddress":"707 N Kings Hwy,","city":"Myrtle Beach","state":"SC","zipCode":"29577","fullAddress":"707 N Kings Hwy, Myrtle Beach SC 29577","latitude":33.6926559,"longitude":-78.8845428,"locationURL":"https://www.mtatlanticusminotaurgoff.com","courseDescription":"Two tiki-themed outdoor courses","maxStrokesPerHole":6,"holeCount":18,"holes":[{"par":3},{"par":3},{"par":3},{"par":3},{"par":3},{"par":3},{"par":3},{"par":3},{"par":3},{"par":3},{"par":3},{"par":3},{"par":3},{"par":3},{"par":3},{"par":3},{"par":3},{"par":3}]},
 {"id":"bca42f74-f560-59e6-aaa9-5a1e4ee97b15","name":"Mulligan’s Island Golf & Entertainment","isPartnered":false,"streetAddress":"1000 New London Ave","city":"Cranston","state":"RI","zipCode":"02920","fullAddress":"1000 New London Ave Cranston RI 02920","latitude":41.7407128,"longitude":-71.4723438,"locationURL":"https://www.mulligansisland.com","courseDescription":"Two tropical-themed outdoor courses","maxStrokesPerHole":6,"holeCount":18,"holes":[{"par":3},{"par":3},{"par":3},{"par":3},{"par":3},{"par":3},{"par":3},{"par":3},{"par":3},{"par":3},{"par":3},{"par":3},{"par":3},{"par":3},{"par":3},{"par":3},{"par":3},{"par":3}]},
 {"id":"65cf8b8a-1143-5710-85a4-87e89acf147f","name":"Nick’s Mini Golf","isPartnered":false,"streetAddress":"2200 Coastal Hwy","city":"Dewey Beach","state":"DE","zipCode":"19971","fullAddress":"2200 Coastal Hwy Dewey Beach DE 19971","latitude":38.6968022,"longitude":-75.0751796,"locationURL":"https://www.nicksminigolf.com","courseDescription":"Outdoor course","maxStrokesPerHole":6,"holeCount":18,"holes":[{"par":3},{"par":3},{"par":3},{"par":3},{"par":3},{"par":3},{"par":3},{"par":3},{"par":3},{"par":3},{"par":3},{"par":3},{"par":3},{"par":3},{"par":3},{"par":3},{"par":3},{"par":3}]},
 {"id":"10eb6af9-61c4-5dca-b863-aabfdd69df53","name":"Ninja Golf!","isPartnered":false,"streetAddress":"12080 Adams Rd","city":"Granger","state":"IN","zipCode":"46530","fullAddress":"12080 Adams Rd Granger IN 46530","latitude":41.7526264,"longitude":-86.1027531,"locationURL":"https://www.playninjagolf.com","courseDescription":"Three Japanese garden-themed courses","maxStrokesPerHole":6,"holeCount":9,"holes":[{"par":3},{"par":3},{"par":3},{"par":3},{"par":3},{"par":3},{"par":3},{"par":3},{"par":3}]},
 {"id":"e87df76e-0f82-5785-8002-49fd0ab8d212","name":"Old Pro Golf 68th Street","isPartnered":false,"streetAddress":"6801 Coastal Hwy","city":"Ocean City","state":"MD","zipCode":"21842","fullAddress":"6801 Coastal Hwy Ocean City MD 21842","latitude":38.3902633,"longitude":-75.0657689,"locationURL":"https://oldprogolf.com/ocean-city-maryland-mini-golf-about-us/","courseDescription":"Safari & jungle themed outdoor & indoor courses","maxStrokesPerHole":6,"holeCount":18,"holes":[{"par":3},{"par":3},{"par":3},{"par":3},{"par":3},{"par":3},{"par":3},{"par":3},{"par":3},{"par":3},{"par":3},{"par":3},{"par":3},{"par":3},{"par":3},{"par":3},{"par":3},{"par":3}]},
 {"id":"5b813e02-2317-5f4c-86a2-edd520cefc7e","name":"Orcas Island Mini Golf","isPartnered":false,"streetAddress":"2171 Orcas Rd","city":"Eastsound","state":"WA","zipCode":"98245","fullAddress":"2171 Orcas Rd Eastsound WA 98245","latitude":48.6716299,"longitude":-122.9277388,"locationURL":"https://www.orcasislandminigolf.com","courseDescription":"Island themed outdoor course","maxStrokesPerHole":6,"holeCount":18,"holes":[{"par":3},{"par":3},{"par":3},{"par":3},{"par":3},{"par":3},{"par":3},{"par":3},{"par":3},{"par":3},{"par":3},{"par":3},{"par":3},{"par":3},{"par":3},{"par":3},{"par":3},{"par":3}]},
 {"id":"91da5a45-5474-5d3f-b79c-ff8378656c85","name":"Par-King Skill Golf","isPartnered":false,"streetAddress":"21711 N Milwaukee Ave","city":"Lincolnshire","state":"IL","zipCode":"60069","fullAddress":"21711 N Milwaukee Ave Lincolnshire IL 60069","latitude":42.1798869,"longitude":-87.9230618,"locationURL":"https://par-king.com","courseDescription":"Two outdoor courses","maxStrokesPerHole":6,"holeCount":18,"holes":[{"par":3},{"par":3},{"par":3},{"par":3},{"par":3},{"par":3},{"par":3},{"par":3},{"par":3},{"par":3},{"par":3},{"par":3},{"par":3},{"par":3},{"par":3},{"par":3},{"par":3},{"par":3}]},
 {"id":"32040f03-3973-50fa-8d3f-8e67d7e5bddb","name":"Patterson Golf Park","isPartnered":false,"streetAddress":"12586 Patterson Ave","city":"Henrico","state":"VA","zipCode":"23238","fullAddress":"12586 Patterson Ave Henrico VA 23238","latitude":37.6001696,"longitude":-77.653193,"locationURL":"https://pattersongolfpark.com","courseDescription":"Two outdoor courses","maxStrokesPerHole":6,"holeCount":18,"holes":[{"par":3},{"par":3},{"par":3},{"par":3},{"par":3},{"par":3},{"par":3},{"par":3},{"par":3},{"par":3},{"par":3},{"par":3},{"par":3},{"par":3},{"par":3},{"par":3},{"par":3},{"par":3}]},
 {"id":"e4fbc8c2-6a45-5f1b-b07c-850e8acd4a44","name":"Peter Pan Mini Golf","isPartnered":false,"streetAddress":"1207 Barton Springs Rd","city":"Austin","state":"TX","zipCode":"78704","fullAddress":"1207 Barton Springs Rd Austin TX 78704","latitude":30.2602978,"longitude":-97.757719,"locationURL":"https://peterpanminigolf.com","courseDescription":"Two outdoor courses","maxStrokesPerHole":6,"holeCount":18,"holes":[{"par":3},{"par":3},{"par":3},{"par":3},{"par":3},{"par":3},{"par":3},{"par":3},{"par":3},{"par":3},{"par":3},{"par":3},{"par":3},{"par":3},{"par":3},{"par":3},{"par":3},{"par":3}]},
 {"id":"5a3cd1de-2f2b-5291-b619-2d2b79b5e00a","name":"Pine Creek Miniature Golf","isPartnered":false,"streetAddress":"394 NJ-31 N","city":"Ringoes","state":"NJ","zipCode":"08551","fullAddress":"394 NJ-31 N Ringoes NJ 08551","latitude":40.3936999,"longitude":-74.8422325,"locationURL":"https://www.pinecreekgolf.com","courseDescription":"Two outdoor courses","maxStrokesPerHole":6,"holeCount":18,"holes":[{"par":3},{"par":3},{"par":3},{"par":3},{"par":3},{"par":3},{"par":3},{"par":3},{"par":3},{"par":3},{"par":3},{"par":3},{"par":3},{"par":3},{"par":3},{"par":3},{"par":3},{"par":3}]},
 {"id":"a297d68e-576e-5e79-a1f7-e9afe9fded3e","name":"Pirate’s Island Adventure Golf","isPartnered":false,"streetAddress":"3201 Gulf Shores Pkwy","city":"Gulf Shores","state":"AL","zipCode":"36542","fullAddress":"3201 Gulf Shores Pkwy Gulf Shores AL 36542","latitude":30.2864166,"longitude":-87.686728,"locationURL":"https://www.piratesislandgolf.com","courseDescription":"Two pirate-themed outdoor courses","maxStrokesPerHole":6,"holeCount":18,"holes":[{"par":3},{"par":3},{"par":3},{"par":3},{"par":3},{"par":3},{"par":3},{"par":3},{"par":3},{"par":3},{"par":3},{"par":3},{"par":3},{"par":3},{"par":3},{"par":3},{"par":3},{"par":3}]},
 {"id":"202979d0-d4d7-58c0-b477-0c02bc9a073d","name":"Playground Mini Golf","isPartnered":false,"streetAddress":"21010 E Pacific Coast Hwy Ste M210","city":"Huntington Beach","state":"CA","zipCode":"92648","fullAddress":"21010 E Pacific Coast Hwy Ste M210 Huntington Beach CA 92648","latitude":33.6556336,"longitude":-117.9987547,"locationURL":"https://playgroundhb.com","courseDescription":"Indoor course","maxStrokesPerHole":6,"holeCount":9,"holes":[{"par":3},{"par":3},{"par":3},{"par":3},{"par":3},{"par":3},{"par":3},{"par":3},{"par":3}]},
 {"id":"5b59ca31-185a-589d-9161-cc9e338fe369","name":"Prehistoric Putt","isPartnered":false,"streetAddress":"1919 Cornhusker Hwy","city":"Lincoln","state":"NE","zipCode":"68521","fullAddress":"1919 Cornhusker Hwy Lincoln NE 68521","latitude":40.8422703,"longitude":-96.6927476,"locationURL":"https://letsgoputt.com/prehistoric-putt-lincoln-1","courseDescription":"2 dino-themed courses","maxStrokesPerHole":6,"holeCount":18,"holes":[{"par":3},{"par":3},{"par":3},{"par":3},{"par":3},{"par":3},{"par":3},{"par":3},{"par":3},{"par":3},{"par":3},{"par":3},{"par":3},{"par":3},{"par":3},{"par":3},{"par":3},{"par":3}]},
 {"id":"a355a7c4-3591-57ed-acdf-3da9fbd4aac1","name":"Prodigy","isPartnered":false,"streetAddress":"116 Pleasant St","city":"Easthampton","state":"MA","zipCode":"01027","fullAddress":"116 Pleasant St Easthampton MA 01027","latitude":42.2724604,"longitude":-72.6638292,"locationURL":"https://www.prodigyminigolf.com","courseDescription":"Indoor blacklight course","maxStrokesPerHole":6,"holeCount":18,"holes":[{"par":3},{"par":3},{"par":3},{"par":3},{"par":3},{"par":3},{"par":3},{"par":3},{"par":3},{"par":3},{"par":3},{"par":3},{"par":3},{"par":3},{"par":3},{"par":3},{"par":3},{"par":3}]},
 {"id":"b018d473-20c2-58b8-8c31-a648d7880375","name":"Putters Mini Golf","isPartnered":false,"streetAddress":"1821 Canyon Crest Dr","city":"Twin Falls","state":"ID","zipCode":"83301","fullAddress":"1821 Canyon Crest Dr Twin Falls ID 83301","latitude":42.5939772,"longitude":-114.4740443,"locationURL":"https://puttersminigolf.com","courseDescription":"Outdoor course","maxStrokesPerHole":6,"holeCount":18,"holes":[{"par":3},{"par":3},{"par":3},{"par":3},{"par":3},{"par":3},{"par":3},{"par":3},{"par":3},{"par":3},{"par":3},{"par":3},{"par":3},{"par":3},{"par":3},{"par":3},{"par":3},{"par":3}]},
 {"id":"71f03ada-57d5-5608-8191-bbb00594e982","name":"Putters Wild","isPartnered":false,"streetAddress":"1230 E 68th Ave #109","city":"Anchorage","state":"AK","zipCode":"99518","fullAddress":"1230 E 68th Ave #109 Anchorage AK 99518","latitude":61.158592,"longitude":-149.858603,"locationURL":"https://putterswild.com","courseDescription":"3D black light indoor course","maxStrokesPerHole":6,"holeCount":18,"holes":[{"par":3},{"par":3},{"par":3},{"par":3},{"par":3},{"par":3},{"par":3},{"par":3},{"par":3},{"par":3},{"par":3},{"par":3},{"par":3},{"par":3},{"par":3},{"par":3},{"par":3},{"par":3}]},
 {"id":"b97ca692-ab19-5018-9048-5c5d47efff83","name":"Riverfront Mini Golf","isPartnered":false,"streetAddress":"301 W E St","city":"Casper","state":"WY","zipCode":"82601","fullAddress":"301 W E St Casper WY 82601","latitude":42.8550513,"longitude":-106.3288976,"locationURL":"https://riverfrontminigolf.com","courseDescription":"Outdoor course","maxStrokesPerHole":6,"holeCount":18,"holes":[{"par":3},{"par":3},{"par":3},{"par":3},{"par":3},{"par":3},{"par":3},{"par":3},{"par":3},{"par":3},{"par":3},{"par":3},{"par":3},{"par":3},{"par":3},{"par":3},{"par":3},{"par":3}]},
 {"id":"7c8d49cb-4930-5d22-863d-d611ddbe56f4","name":"Shoot for the Stars Mini Golf","isPartnered":false,"streetAddress":"3110 W 76 Country Blvd","city":"Branson","state":"MO","zipCode":"65616","fullAddress":"3110 W 76 Country Blvd Branson MO 65616","latitude":36.6377398,"longitude":-93.2775968,"locationURL":"https://www.hollywoodwaxentertainment.com/branson-mo-attractions/shoot-for-the-stars-mini-golf/","courseDescription":"Hollywood-themed outdoor course","maxStrokesPerHole":6,"holeCount":18,"holes":[{"par":3},{"par":3},{"par":3},{"par":3},{"par":3},{"par":3},{"par":3},{"par":3},{"par":3},{"par":3},{"par":3},{"par":3},{"par":3},{"par":3},{"par":3},{"par":3},{"par":3},{"par":3}]},
 {"id":"97e56df2-6c4d-5b5d-a431-68f2800acec0","name":"Smiley’s Golf Complex","isPartnered":false,"streetAddress":"10195 Monticello Terrace","city":"Lenexa","state":"KS","zipCode":"66227","fullAddress":"10195 Monticello Terrace Lenexa KS 66227","latitude":38.9451048,"longitude":-94.8517091,"locationURL":"https://www.smileysgolf.com","courseDescription":"Two outdoor courses","maxStrokesPerHole":6,"holeCount":18,"holes":[{"par":3},{"par":3},{"par":3},{"par":3},{"par":3},{"par":3},{"par":3},{"par":3},{"par":3},{"par":3},{"par":3},{"par":3},{"par":3},{"par":3},{"par":3},{"par":3},{"par":3},{"par":3}]},
 {"id":"8c233c8a-2e41-5191-9667-eb3c5b270217","name":"Stagecoach Greens","isPartnered":false,"streetAddress":"1379 4th St","city":"San Francisco","state":"CA","zipCode":"94158","fullAddress":"1379 4th St San Francisco CA 94158","latitude":37.7708889,"longitude":-122.3902876,"locationURL":"https://stagecoachgreens.com","courseDescription":"SF themed outdoor course","maxStrokesPerHole":6,"holeCount":18,"holes":[{"par":3},{"par":3},{"par":3},{"par":3},{"par":3},{"par":3},{"par":3},{"par":3},{"par":3},{"par":3},{"par":3},{"par":3},{"par":3},{"par":3},{"par":3},{"par":3},{"par":3},{"par":3}]},
 {"id":"a2bffb6a-5d42-5862-ba63-205e5998dbcf","name":"Subpar Miniature Golf","isPartnered":false,"streetAddress":"900 North Point St Ste F-201","city":"San Francisco","state":"CA","zipCode":"94158","fullAddress":"900 North Point St Ste F-201 San Francisco CA 94158","latitude":37.805931,"longitude":-122.4232413,"locationURL":"https://subparminigolf.com","courseDescription":"SF themed indoor course","maxStrokesPerHole":6,"holeCount":18,"holes":[{"par":2},{"par":3},{"par":3},{"par":2},{"par":2},{"par":4},{"par":3},{"par":3},{"par":4},{"par":3},{"par":3},{"par":4},{"par":3},{"par":3},{"par":3},{"par":3},{"par":4},{"par":3}]},
 {"id":"2d5dcae8-9448-5cfc-bea2-aa4aac5f0841","name":"Sunnyvale Golfland USA","isPartnered":false,"streetAddress":"855 E El Camino Real","city":"Sunnyvale","state":"CA","zipCode":"94087","fullAddress":"855 E El Camino Real Sunnyvale CA 94087","latitude":37.3546686,"longitude":-122.0152722,"locationURL":"https://golfland.com/sunnyvale","courseDescription":"Two outdoor courses","maxStrokesPerHole":6,"holeCount":18,"holes":[{"par":3},{"par":3},{"par":3},{"par":3},{"par":3},{"par":3},{"par":3},{"par":3},{"par":3},{"par":3},{"par":3},{"par":3},{"par":3},{"par":3},{"par":3},{"par":3},{"par":3},{"par":3}]},
 {"id":"d9a1acd6-5644-5cba-a063-2688d5b16c70","name":"Tin Cup Grill","isPartnered":false,"streetAddress":"450 Vision Dr","city":"Cumming","state":"GA","zipCode":"30040","fullAddress":"450 Vision Dr Cumming GA 30040","latitude":34.218019,"longitude":-84.1458111,"locationURL":"https://www.tincupgrill.com","courseDescription":"Outdoor course","maxStrokesPerHole":6,"holeCount":18,"holes":[{"par":3},{"par":3},{"par":3},{"par":3},{"par":3},{"par":3},{"par":3},{"par":3},{"par":3},{"par":3},{"par":3},{"par":3},{"par":3},{"par":3},{"par":3},{"par":3},{"par":3},{"par":3}]},
 {"id":"3769a2dd-a4c6-503e-ab42-fca0588a320e","name":"Valley View Garden Golf","isPartnered":false,"streetAddress":"1405 9th St NW","city":"Great Falls","state":"MT","zipCode":"59404","fullAddress":"1405 9th St NW Great Falls MT 59404","latitude":47.5203582,"longitude":-111.3262894,"courseDescription":"Outdoor course","maxStrokesPerHole":6,"holeCount":18,"holes":[{"par":3},{"par":3},{"par":3},{"par":3},{"par":3},{"par":3},{"par":3},{"par":3},{"par":3},{"par":3},{"par":3},{"par":3},{"par":3},{"par":3},{"par":3},{"par":3},{"par":3},{"par":3}]},
 {"id":"1f5adf87-24a6-5c83-bbff-33b5eec525dd","name":"Village Greens","isPartnered":false,"streetAddress":"1444 Village Rd","city":"Strasburg","state":"PA","zipCode":"17579","fullAddress":"1444 Village Rd Strasburg PA 17579","latitude":39.982332,"longitude":-76.206794,"locationURL":"https://villagegreens.com","courseDescription":"Two outdoor courses","maxStrokesPerHole":6,"holeCount":18,"holes":[{"par":3},{"par":3},{"par":3},{"par":3},{"par":3},{"par":3},{"par":3},{"par":3},{"par":3},{"par":3},{"par":3},{"par":3},{"par":3},{"par":3},{"par":3},{"par":3},{"par":3},{"par":3}]},
 {"id":"0d5e3a0f-aa68-5c12-87d0-ae2faf3f1a1b","name":"Vitense Golfland","isPartnered":false,"streetAddress":"5501 Schroeder Rd","city":"Madison","state":"WI","zipCode":"53711","fullAddress":"5501 Schroeder Rd Madison WI 53711","latitude":43.0430847,"longitude":-89.4764607,"locationURL":"https://www.vitense.com","courseDescription":"One indoor & two outdoor courses","maxStrokesPerHole":6,"holeCount":18,"holes":[{"par":3},{"par":3},{"par":3},{"par":3},{"par":3},{"par":3},{"par":3},{"par":3},{"par":3},{"par":3},{"par":3},{"par":3},{"par":3},{"par":3},{"par":3},{"par":3},{"par":3},{"par":3}]},
 {"id":"b46c2e33-bcf6-5e8c-b7bd-b3739da5a127","name":"Scandia Family Fun Center","isPartnered":false,"streetAddress":"5301 Redwood Dr","city":"Rohnert Park","state":"CA","zipCode":"94928","fullAddress":"5301 Redwood Dr Rohnert Park CA 94928","latitude":38.3592031,"longitude":-122.7150179,"locationURL":"http://scandiafunland.com/","courseDescription":"Two outdoor courses","maxStrokesPerHole":6,"holeCount":18,"holes":[{"par":3},{"par":3},{"par":3},{"par":3},{"par":3},{"par":3},{"par":3},{"par":3},{"par":3},{"par":3},{"par":3},{"par":3},{"par":3},{"par":3},{"par":3},{"par":3},{"par":3},{"par":3}]}
]
}